[
    {
        "city": "Bucharest", 
        "lat": "44.4000", 
        "lng": "26.0833", 
        "country": "Romania", 
        "iso2": "RO", 
        "admin_name": "Bucure\u015fti", 
        "capital": "primary", 
        "population": "1883425", 
        "population_proper": "1883425"
    }, 
    {
        "city": "Cluj-Napoca", 
        "lat": "46.7800", 
        "lng": "23.5594", 
        "country": "Romania", 
        "iso2": "RO", 
        "admin_name": "Cluj", 
        "capital": "admin", 
        "population": "324576", 
        "population_proper": "324576"
    }, 
    {
        "city": "Timi\u015foara", 
        "lat": "45.7597", 
        "lng": "21.2300", 
        "country": "Romania", 
        "iso2": "RO", 
        "admin_name": "Timi\u015f", 
        "capital": "admin", 
        "population": "319279", 
        "population_proper": "319279"
    }, 
    {
        "city": "Bra\u015fov", 
        "lat": "45.6500", 
        "lng": "25.6000", 
        "country": "Romania", 
        "iso2": "RO", 
        "admin_name": "Bra\u015fov", 
        "capital": "admin", 
        "population": "290743", 
        "population_proper": "290743"
    }, 
    {
        "city": "Ia\u015fi", 
        "lat": "47.1622", 
        "lng": "27.5889", 
        "country": "Romania", 
        "iso2": "RO", 
        "admin_name": "Ia\u015fi", 
        "capital": "admin", 
        "population": "290422", 
        "population_proper": "290422"
    }, 
    {
        "city": "Constan\u0163a", 
        "lat": "44.1733", 
        "lng": "28.6383", 
        "country": "Romania", 
        "iso2": "RO", 
        "admin_name": "Constan\u0163a", 
        "capital": "admin", 
        "population": "283872", 
        "population_proper": "283872"
    }, 
    {
        "city": "Craiova", 
        "lat": "44.3333", 
        "lng": "23.8167", 
        "country": "Romania", 
        "iso2": "RO", 
        "admin_name": "Dolj", 
        "capital": "admin", 
        "population": "269506", 
        "population_proper": "269506"
    }, 
    {
        "city": "Gala\u0163i", 
        "lat": "45.4233", 
        "lng": "28.0425", 
        "country": "Romania", 
        "iso2": "RO", 
        "admin_name": "Gala\u0163i", 
        "capital": "admin", 
        "population": "249432", 
        "population_proper": "249432"
    }, 
    {
        "city": "Ploie\u015fti", 
        "lat": "44.9386", 
        "lng": "26.0225", 
        "country": "Romania", 
        "iso2": "RO", 
        "admin_name": "Prahova", 
        "capital": "admin", 
        "population": "209945", 
        "population_proper": "209945"
    }, 
    {
        "city": "Oradea", 
        "lat": "47.0722", 
        "lng": "21.9211", 
        "country": "Romania", 
        "iso2": "RO", 
        "admin_name": "Bihor", 
        "capital": "admin", 
        "population": "196367", 
        "population_proper": "196367"
    }, 
    {
        "city": "Br\u0103ila", 
        "lat": "45.2692", 
        "lng": "27.9575", 
        "country": "Romania", 
        "iso2": "RO", 
        "admin_name": "Br\u0103ila", 
        "capital": "admin", 
        "population": "180302", 
        "population_proper": "180302"
    }, 
    {
        "city": "Arad", 
        "lat": "46.1667", 
        "lng": "21.3167", 
        "country": "Romania", 
        "iso2": "RO", 
        "admin_name": "Arad", 
        "capital": "admin", 
        "population": "159074", 
        "population_proper": "159074"
    }, 
    {
        "city": "Pite\u015fti", 
        "lat": "44.8667", 
        "lng": "24.8833", 
        "country": "Romania", 
        "iso2": "RO", 
        "admin_name": "Arge\u015f", 
        "capital": "admin", 
        "population": "155383", 
        "population_proper": "155383"
    }, 
    {
        "city": "Sibiu", 
        "lat": "45.8000", 
        "lng": "24.1500", 
        "country": "Romania", 
        "iso2": "RO", 
        "admin_name": "Sibiu", 
        "capital": "admin", 
        "population": "147245", 
        "population_proper": "147245"
    }, 
    {
        "city": "Bac\u0103u", 
        "lat": "46.5833", 
        "lng": "26.9167", 
        "country": "Romania", 
        "iso2": "RO", 
        "admin_name": "Bac\u0103u", 
        "capital": "admin", 
        "population": "144307", 
        "population_proper": "144307"
    }, 
    {
        "city": "T\u00e2rgu-Mure\u015f", 
        "lat": "46.5497", 
        "lng": "24.5597", 
        "country": "Romania", 
        "iso2": "RO", 
        "admin_name": "Mure\u015f", 
        "capital": "admin", 
        "population": "134290", 
        "population_proper": "134290"
    }, 
    {
        "city": "Baia Mare", 
        "lat": "47.6597", 
        "lng": "23.5819", 
        "country": "Romania", 
        "iso2": "RO", 
        "admin_name": "Maramure\u015f", 
        "capital": "admin", 
        "population": "123738", 
        "population_proper": "123738"
    }, 
    {
        "city": "Buz\u0103u", 
        "lat": "45.1517", 
        "lng": "26.8167", 
        "country": "Romania", 
        "iso2": "RO", 
        "admin_name": "Buz\u0103u", 
        "capital": "admin", 
        "population": "115494", 
        "population_proper": "115494"
    }, 
    {
        "city": "Boto\u015fani", 
        "lat": "47.7486", 
        "lng": "26.6694", 
        "country": "Romania", 
        "iso2": "RO", 
        "admin_name": "Boto\u015fani", 
        "capital": "admin", 
        "population": "106847", 
        "population_proper": "106847"
    }, 
    {
        "city": "Satu Mare", 
        "lat": "47.7900", 
        "lng": "22.8900", 
        "country": "Romania", 
        "iso2": "RO", 
        "admin_name": "Satu Mare", 
        "capital": "admin", 
        "population": "102411", 
        "population_proper": "102411"
    }, 
    {
        "city": "R\u00e2mnicu V\u00e2lcea", 
        "lat": "45.1047", 
        "lng": "24.3756", 
        "country": "Romania", 
        "iso2": "RO", 
        "admin_name": "V\u00e2lcea", 
        "capital": "admin", 
        "population": "98776", 
        "population_proper": "98776"
    }, 
    {
        "city": "Drobeta-Turnu Severin", 
        "lat": "44.6361", 
        "lng": "22.6556", 
        "country": "Romania", 
        "iso2": "RO", 
        "admin_name": "Mehedin\u0163i", 
        "capital": "admin", 
        "population": "92617", 
        "population_proper": "92617"
    }, 
    {
        "city": "Suceava", 
        "lat": "47.6514", 
        "lng": "26.2556", 
        "country": "Romania", 
        "iso2": "RO", 
        "admin_name": "Suceava", 
        "capital": "admin", 
        "population": "92121", 
        "population_proper": "92121"
    }, 
    {
        "city": "Piatra Neam\u0163", 
        "lat": "46.9275", 
        "lng": "26.3708", 
        "country": "Romania", 
        "iso2": "RO", 
        "admin_name": "Neam\u0163", 
        "capital": "admin", 
        "population": "85055", 
        "population_proper": "85055"
    }, 
    {
        "city": "Re\u015fi\u0163a", 
        "lat": "45.2970", 
        "lng": "21.8865", 
        "country": "Romania", 
        "iso2": "RO", 
        "admin_name": "Cara\u015f-Severin", 
        "capital": "admin", 
        "population": "83324", 
        "population_proper": "81228"
    }, 
    {
        "city": "T\u00e2rgu Jiu", 
        "lat": "45.0342", 
        "lng": "23.2747", 
        "country": "Romania", 
        "iso2": "RO", 
        "admin_name": "Gorj", 
        "capital": "admin", 
        "population": "82504", 
        "population_proper": "82504"
    }, 
    {
        "city": "T\u00e2rgovi\u015fte", 
        "lat": "44.9244", 
        "lng": "25.4572", 
        "country": "Romania", 
        "iso2": "RO", 
        "admin_name": "D\u00e2mbovi\u0163a", 
        "capital": "admin", 
        "population": "79610", 
        "population_proper": "79610"
    }, 
    {
        "city": "Foc\u015fani", 
        "lat": "45.6997", 
        "lng": "27.1797", 
        "country": "Romania", 
        "iso2": "RO", 
        "admin_name": "Vrancea", 
        "capital": "admin", 
        "population": "79315", 
        "population_proper": "79315"
    }, 
    {
        "city": "Bistri\u0163a", 
        "lat": "47.1333", 
        "lng": "24.4833", 
        "country": "Romania", 
        "iso2": "RO", 
        "admin_name": "Bistri\u0163a-N\u0103s\u0103ud", 
        "capital": "admin", 
        "population": "75076", 
        "population_proper": "75076"
    }, 
    {
        "city": "Tulcea", 
        "lat": "45.1900", 
        "lng": "28.8000", 
        "country": "Romania", 
        "iso2": "RO", 
        "admin_name": "Tulcea", 
        "capital": "admin", 
        "population": "73707", 
        "population_proper": "73707"
    }, 
    {
        "city": "Slatina", 
        "lat": "44.4297", 
        "lng": "24.3642", 
        "country": "Romania", 
        "iso2": "RO", 
        "admin_name": "Olt", 
        "capital": "admin", 
        "population": "70293", 
        "population_proper": "70293"
    }, 
    {
        "city": "C\u0103l\u0103ra\u015fi", 
        "lat": "44.2000", 
        "lng": "27.3333", 
        "country": "Romania", 
        "iso2": "RO", 
        "admin_name": "C\u0103l\u0103ra\u015fi", 
        "capital": "admin", 
        "population": "65181", 
        "population_proper": "65181"
    }, 
    {
        "city": "Alba Iulia", 
        "lat": "46.0764", 
        "lng": "23.5728", 
        "country": "Romania", 
        "iso2": "RO", 
        "admin_name": "Alba", 
        "capital": "admin", 
        "population": "63536", 
        "population_proper": "63536"
    }, 
    {
        "city": "Giurgiu", 
        "lat": "43.9000", 
        "lng": "25.9667", 
        "country": "Romania", 
        "iso2": "RO", 
        "admin_name": "Giurgiu", 
        "capital": "admin", 
        "population": "61353", 
        "population_proper": "61353"
    }, 
    {
        "city": "Deva", 
        "lat": "45.8719", 
        "lng": "22.9117", 
        "country": "Romania", 
        "iso2": "RO", 
        "admin_name": "Hunedoara", 
        "capital": "", 
        "population": "61123", 
        "population_proper": "61123"
    }, 
    {
        "city": "Zal\u0103u", 
        "lat": "47.1911", 
        "lng": "23.0572", 
        "country": "Romania", 
        "iso2": "RO", 
        "admin_name": "S\u0103laj", 
        "capital": "admin", 
        "population": "56202", 
        "population_proper": "56202"
    }, 
    {
        "city": "Sf\u00e2ntu-Gheorghe", 
        "lat": "45.8636", 
        "lng": "25.7875", 
        "country": "Romania", 
        "iso2": "RO", 
        "admin_name": "Covasna", 
        "capital": "admin", 
        "population": "56006", 
        "population_proper": "56006"
    }, 
    {
        "city": "Vaslui", 
        "lat": "46.6383", 
        "lng": "27.7292", 
        "country": "Romania", 
        "iso2": "RO", 
        "admin_name": "Vaslui", 
        "capital": "admin", 
        "population": "55407", 
        "population_proper": "55407"
    }, 
    {
        "city": "Slobozia", 
        "lat": "44.5639", 
        "lng": "27.3661", 
        "country": "Romania", 
        "iso2": "RO", 
        "admin_name": "Ialomi\u0163a", 
        "capital": "admin", 
        "population": "45891", 
        "population_proper": "45891"
    }, 
    {
        "city": "Alexandria", 
        "lat": "43.9686", 
        "lng": "25.3333", 
        "country": "Romania", 
        "iso2": "RO", 
        "admin_name": "Teleorman", 
        "capital": "admin", 
        "population": "45434", 
        "population_proper": "45434"
    }, 
    {
        "city": "Voluntari", 
        "lat": "44.4925", 
        "lng": "26.1914", 
        "country": "Romania", 
        "iso2": "RO", 
        "admin_name": "Bucure\u015fti", 
        "capital": "", 
        "population": "42944", 
        "population_proper": "42944"
    }, 
    {
        "city": "Miercurea-Ciuc", 
        "lat": "46.3594", 
        "lng": "25.8039", 
        "country": "Romania", 
        "iso2": "RO", 
        "admin_name": "Harghita", 
        "capital": "admin", 
        "population": "38966", 
        "population_proper": "38966"
    }, 
    {
        "city": "Sighetu Marma\u0163iei", 
        "lat": "47.9309", 
        "lng": "23.8947", 
        "country": "Romania", 
        "iso2": "RO", 
        "admin_name": "Maramure\u015f", 
        "capital": "", 
        "population": "37640", 
        "population_proper": "37640"
    }, 
    {
        "city": "N\u0103vodari", 
        "lat": "44.3208", 
        "lng": "28.6125", 
        "country": "Romania", 
        "iso2": "RO", 
        "admin_name": "Constan\u0163a", 
        "capital": "", 
        "population": "32981", 
        "population_proper": "32981"
    }, 
    {
        "city": "Mioveni", 
        "lat": "44.9553", 
        "lng": "24.9356", 
        "country": "Romania", 
        "iso2": "RO", 
        "admin_name": "Arge\u015f", 
        "capital": "", 
        "population": "31998", 
        "population_proper": "31998"
    }, 
    {
        "city": "Bor\u015fa", 
        "lat": "47.6553", 
        "lng": "24.6631", 
        "country": "Romania", 
        "iso2": "RO", 
        "admin_name": "Maramure\u015f", 
        "capital": "", 
        "population": "27611", 
        "population_proper": "27611"
    }, 
    {
        "city": "Pantelimon", 
        "lat": "44.4528", 
        "lng": "26.2036", 
        "country": "Romania", 
        "iso2": "RO", 
        "admin_name": "Ilfov", 
        "capital": "", 
        "population": "25596", 
        "population_proper": "25596"
    }, 
    {
        "city": "Olteni\u0163a", 
        "lat": "44.0864", 
        "lng": "26.6364", 
        "country": "Romania", 
        "iso2": "RO", 
        "admin_name": "C\u0103l\u0103ra\u015fi", 
        "capital": "", 
        "population": "24822", 
        "population_proper": "24822"
    }, 
    {
        "city": "Turnu M\u0103gurele", 
        "lat": "43.7517", 
        "lng": "24.8708", 
        "country": "Romania", 
        "iso2": "RO", 
        "admin_name": "Teleorman", 
        "capital": "", 
        "population": "24772", 
        "population_proper": "24772"
    }, 
    {
        "city": "Z\u0103rne\u015fti", 
        "lat": "45.5725", 
        "lng": "25.3431", 
        "country": "Romania", 
        "iso2": "RO", 
        "admin_name": "Bra\u015fov", 
        "capital": "", 
        "population": "23476", 
        "population_proper": "23476"
    }, 
    {
        "city": "Petrila", 
        "lat": "45.4511", 
        "lng": "23.3981", 
        "country": "Romania", 
        "iso2": "RO", 
        "admin_name": "Hunedoara", 
        "capital": "", 
        "population": "22692", 
        "population_proper": "22692"
    }, 
    {
        "city": "Buftea", 
        "lat": "44.5700", 
        "lng": "25.9500", 
        "country": "Romania", 
        "iso2": "RO", 
        "admin_name": "Ilfov", 
        "capital": "", 
        "population": "22178", 
        "population_proper": "22178"
    }, 
    {
        "city": "Pope\u015fti-Leordeni", 
        "lat": "44.3800", 
        "lng": "26.1700", 
        "country": "Romania", 
        "iso2": "RO", 
        "admin_name": "Ilfov", 
        "capital": "", 
        "population": "21895", 
        "population_proper": "21895"
    }, 
    {
        "city": "Cugir", 
        "lat": "45.8436", 
        "lng": "23.3636", 
        "country": "Romania", 
        "iso2": "RO", 
        "admin_name": "Alba", 
        "capital": "", 
        "population": "21376", 
        "population_proper": "21376"
    }, 
    {
        "city": "Carei", 
        "lat": "47.6900", 
        "lng": "22.4700", 
        "country": "Romania", 
        "iso2": "RO", 
        "admin_name": "Satu Mare", 
        "capital": "", 
        "population": "21112", 
        "population_proper": "21112"
    }, 
    {
        "city": "Com\u0103ne\u015fti", 
        "lat": "46.4132", 
        "lng": "26.4362", 
        "country": "Romania", 
        "iso2": "RO", 
        "admin_name": "Bac\u0103u", 
        "capital": "", 
        "population": "19568", 
        "population_proper": "19568"
    }, 
    {
        "city": "T\u00e2rgu Neam\u0163", 
        "lat": "47.2025", 
        "lng": "26.3586", 
        "country": "Romania", 
        "iso2": "RO", 
        "admin_name": "Neam\u0163", 
        "capital": "", 
        "population": "18695", 
        "population_proper": "18695"
    }, 
    {
        "city": "Bal\u015f", 
        "lat": "44.3542", 
        "lng": "24.0986", 
        "country": "Romania", 
        "iso2": "RO", 
        "admin_name": "Olt", 
        "capital": "", 
        "population": "18164", 
        "population_proper": "18164"
    }, 
    {
        "city": "B\u0103icoi", 
        "lat": "45.0453", 
        "lng": "25.8658", 
        "country": "Romania", 
        "iso2": "RO", 
        "admin_name": "Prahova", 
        "capital": "", 
        "population": "17981", 
        "population_proper": "17981"
    }, 
    {
        "city": "Salonta", 
        "lat": "46.8000", 
        "lng": "21.6500", 
        "country": "Romania", 
        "iso2": "RO", 
        "admin_name": "Bihor", 
        "capital": "", 
        "population": "17735", 
        "population_proper": "17735"
    }, 
    {
        "city": "Calafat", 
        "lat": "43.9858", 
        "lng": "22.9575", 
        "country": "Romania", 
        "iso2": "RO", 
        "admin_name": "Dolj", 
        "capital": "", 
        "population": "17336", 
        "population_proper": "17336"
    }, 
    {
        "city": "Cernavod\u0103", 
        "lat": "44.3381", 
        "lng": "28.0336", 
        "country": "Romania", 
        "iso2": "RO", 
        "admin_name": "Ialomi\u0163a", 
        "capital": "", 
        "population": "17022", 
        "population_proper": "17022"
    }, 
    {
        "city": "Filia\u015fi", 
        "lat": "44.5539", 
        "lng": "23.5290", 
        "country": "Romania", 
        "iso2": "RO", 
        "admin_name": "Dolj", 
        "capital": "", 
        "population": "16900", 
        "population_proper": "16900"
    }, 
    {
        "city": "Corabia", 
        "lat": "43.7736", 
        "lng": "24.5033", 
        "country": "Romania", 
        "iso2": "RO", 
        "admin_name": "Olt", 
        "capital": "", 
        "population": "16441", 
        "population_proper": "16441"
    }, 
    {
        "city": "Breaza", 
        "lat": "45.1872", 
        "lng": "25.6622", 
        "country": "Romania", 
        "iso2": "RO", 
        "admin_name": "Prahova", 
        "capital": "", 
        "population": "15928", 
        "population_proper": "15928"
    }, 
    {
        "city": "Boc\u015fa", 
        "lat": "45.3747", 
        "lng": "21.7106", 
        "country": "Romania", 
        "iso2": "RO", 
        "admin_name": "Cara\u015f-Severin", 
        "capital": "", 
        "population": "15842", 
        "population_proper": "15842"
    }, 
    {
        "city": "Baia-Sprie", 
        "lat": "47.6608", 
        "lng": "23.6886", 
        "country": "Romania", 
        "iso2": "RO", 
        "admin_name": "Maramure\u015f", 
        "capital": "", 
        "population": "15476", 
        "population_proper": "15476"
    }, 
    {
        "city": "Bragadiru", 
        "lat": "44.3694", 
        "lng": "25.9753", 
        "country": "Romania", 
        "iso2": "RO", 
        "admin_name": "Ilfov", 
        "capital": "", 
        "population": "15329", 
        "population_proper": "15329"
    }, 
    {
        "city": "Ludu\u015f", 
        "lat": "46.4778", 
        "lng": "24.0961", 
        "country": "Romania", 
        "iso2": "RO", 
        "admin_name": "Mure\u015f", 
        "capital": "", 
        "population": "15328", 
        "population_proper": "15328"
    }, 
    {
        "city": "Vi\u015feu de Sus", 
        "lat": "47.7111", 
        "lng": "24.4264", 
        "country": "Romania", 
        "iso2": "RO", 
        "admin_name": "Maramure\u015f", 
        "capital": "", 
        "population": "15037", 
        "population_proper": "15037"
    }, 
    {
        "city": "R\u00e2\u015fnov", 
        "lat": "45.5931", 
        "lng": "25.4603", 
        "country": "Romania", 
        "iso2": "RO", 
        "admin_name": "Bra\u015fov", 
        "capital": "", 
        "population": "15022", 
        "population_proper": "15022"
    }, 
    {
        "city": "Buhu\u015fi", 
        "lat": "46.7150", 
        "lng": "26.7042", 
        "country": "Romania", 
        "iso2": "RO", 
        "admin_name": "Bac\u0103u", 
        "capital": "", 
        "population": "14562", 
        "population_proper": "14562"
    }, 
    {
        "city": "\u015etef\u0103ne\u015fti", 
        "lat": "44.8717", 
        "lng": "24.9527", 
        "country": "Romania", 
        "iso2": "RO", 
        "admin_name": "Arge\u015f", 
        "capital": "", 
        "population": "14541", 
        "population_proper": "14541"
    }, 
    {
        "city": "\u015eimleu Silvaniei", 
        "lat": "47.2300", 
        "lng": "22.8000", 
        "country": "Romania", 
        "iso2": "RO", 
        "admin_name": "S\u0103laj", 
        "capital": "", 
        "population": "14436", 
        "population_proper": "14436"
    }, 
    {
        "city": "Mizil", 
        "lat": "45.0000", 
        "lng": "26.4406", 
        "country": "Romania", 
        "iso2": "RO", 
        "admin_name": "Prahova", 
        "capital": "", 
        "population": "14312", 
        "population_proper": "14312"
    }, 
    {
        "city": "Cisn\u0103die", 
        "lat": "45.7128", 
        "lng": "24.1508", 
        "country": "Romania", 
        "iso2": "RO", 
        "admin_name": "Sibiu", 
        "capital": "", 
        "population": "14282", 
        "population_proper": "14282"
    }, 
    {
        "city": "Pucioasa", 
        "lat": "45.0742", 
        "lng": "25.4342", 
        "country": "Romania", 
        "iso2": "RO", 
        "admin_name": "D\u00e2mbovi\u0163a", 
        "capital": "", 
        "population": "14254", 
        "population_proper": "14254"
    }, 
    {
        "city": "Chitila", 
        "lat": "44.5172", 
        "lng": "25.9753", 
        "country": "Romania", 
        "iso2": "RO", 
        "admin_name": "Ilfov", 
        "capital": "", 
        "population": "14184", 
        "population_proper": "14184"
    }, 
    {
        "city": "Zimnicea", 
        "lat": "43.6539", 
        "lng": "25.3650", 
        "country": "Romania", 
        "iso2": "RO", 
        "admin_name": "Teleorman", 
        "capital": "", 
        "population": "14058", 
        "population_proper": "14058"
    }, 
    {
        "city": "Otopeni", 
        "lat": "44.5500", 
        "lng": "26.0700", 
        "country": "Romania", 
        "iso2": "RO", 
        "admin_name": "Ilfov", 
        "capital": "", 
        "population": "13861", 
        "population_proper": "13861"
    }, 
    {
        "city": "Ovidiu", 
        "lat": "44.2700", 
        "lng": "28.5600", 
        "country": "Romania", 
        "iso2": "RO", 
        "admin_name": "Constan\u0163a", 
        "capital": "", 
        "population": "13847", 
        "population_proper": "13847"
    }, 
    {
        "city": "Gura Humorului", 
        "lat": "47.5542", 
        "lng": "25.8875", 
        "country": "Romania", 
        "iso2": "RO", 
        "admin_name": "Suceava", 
        "capital": "", 
        "population": "13667", 
        "population_proper": "13667"
    }, 
    {
        "city": "Jimbolia", 
        "lat": "45.7917", 
        "lng": "20.7222", 
        "country": "Romania", 
        "iso2": "RO", 
        "admin_name": "Timi\u015f", 
        "capital": "", 
        "population": "13597", 
        "population_proper": "13597"
    }, 
    {
        "city": "G\u0103e\u015fti", 
        "lat": "44.7208", 
        "lng": "25.3147", 
        "country": "Romania", 
        "iso2": "RO", 
        "admin_name": "D\u00e2mbovi\u0163a", 
        "capital": "", 
        "population": "13317", 
        "population_proper": "13317"
    }, 
    {
        "city": "Vicovu de Sus", 
        "lat": "47.9258", 
        "lng": "25.6800", 
        "country": "Romania", 
        "iso2": "RO", 
        "admin_name": "Suceava", 
        "capital": "", 
        "population": "13308", 
        "population_proper": "13308"
    }, 
    {
        "city": "\u0162\u0103nd\u0103rei", 
        "lat": "44.6403", 
        "lng": "27.6586", 
        "country": "Romania", 
        "iso2": "RO", 
        "admin_name": "Ialomi\u0163a", 
        "capital": "", 
        "population": "13219", 
        "population_proper": "13219"
    }, 
    {
        "city": "Ocna Mure\u015f", 
        "lat": "46.3900", 
        "lng": "23.8600", 
        "country": "Romania", 
        "iso2": "RO", 
        "admin_name": "Alba", 
        "capital": "", 
        "population": "13036", 
        "population_proper": "13036"
    }, 
    {
        "city": "Bolintin Vale", 
        "lat": "44.4472", 
        "lng": "25.7572", 
        "country": "Romania", 
        "iso2": "RO", 
        "admin_name": "Giurgiu", 
        "capital": "", 
        "population": "12929", 
        "population_proper": "12929"
    }, 
    {
        "city": "Avrig", 
        "lat": "45.7081", 
        "lng": "24.4000", 
        "country": "Romania", 
        "iso2": "RO", 
        "admin_name": "Sibiu", 
        "capital": "", 
        "population": "12815", 
        "population_proper": "12815"
    }, 
    {
        "city": "Pecica", 
        "lat": "46.1700", 
        "lng": "21.0700", 
        "country": "Romania", 
        "iso2": "RO", 
        "admin_name": "Arad", 
        "capital": "", 
        "population": "12762", 
        "population_proper": "12762"
    }, 
    {
        "city": "Simeria", 
        "lat": "45.8500", 
        "lng": "23.0100", 
        "country": "Romania", 
        "iso2": "RO", 
        "admin_name": "Hunedoara", 
        "capital": "", 
        "population": "12556", 
        "population_proper": "12556"
    }, 
    {
        "city": "Moldova Nou\u0103", 
        "lat": "44.7347", 
        "lng": "21.6664", 
        "country": "Romania", 
        "iso2": "RO", 
        "admin_name": "Cara\u015f-Severin", 
        "capital": "", 
        "population": "12350", 
        "population_proper": "12350"
    }, 
    {
        "city": "S\u00e2nnicolau Mare", 
        "lat": "46.0722", 
        "lng": "20.6294", 
        "country": "Romania", 
        "iso2": "RO", 
        "admin_name": "Timi\u015f", 
        "capital": "", 
        "population": "12312", 
        "population_proper": "12312"
    }, 
    {
        "city": "D\u0103rm\u0103ne\u015fti", 
        "lat": "46.3700", 
        "lng": "26.4797", 
        "country": "Romania", 
        "iso2": "RO", 
        "admin_name": "Bac\u0103u", 
        "capital": "", 
        "population": "12247", 
        "population_proper": "12247"
    }, 
    {
        "city": "D\u0103buleni", 
        "lat": "43.8011", 
        "lng": "24.0919", 
        "country": "Romania", 
        "iso2": "RO", 
        "admin_name": "Dolj", 
        "capital": "", 
        "population": "12175", 
        "population_proper": "12175"
    }, 
    {
        "city": "Comarnic", 
        "lat": "45.2511", 
        "lng": "25.6353", 
        "country": "Romania", 
        "iso2": "RO", 
        "admin_name": "Prahova", 
        "capital": "", 
        "population": "11970", 
        "population_proper": "11970"
    }, 
    {
        "city": "Negre\u015fti-Oa\u015f", 
        "lat": "47.8694", 
        "lng": "23.4242", 
        "country": "Romania", 
        "iso2": "RO", 
        "admin_name": "Satu Mare", 
        "capital": "", 
        "population": "11867", 
        "population_proper": "11867"
    }, 
    {
        "city": "Rovinari", 
        "lat": "44.9125", 
        "lng": "23.1622", 
        "country": "Romania", 
        "iso2": "RO", 
        "admin_name": "Gorj", 
        "capital": "", 
        "population": "11816", 
        "population_proper": "11816"
    }, 
    {
        "city": "Scornice\u015fti", 
        "lat": "44.5700", 
        "lng": "24.5500", 
        "country": "Romania", 
        "iso2": "RO", 
        "admin_name": "Olt", 
        "capital": "", 
        "population": "11766", 
        "population_proper": "11766"
    }, 
    {
        "city": "T\u00e2rgu L\u0103pu\u015f", 
        "lat": "47.4525", 
        "lng": "23.8631", 
        "country": "Romania", 
        "iso2": "RO", 
        "admin_name": "Maramure\u015f", 
        "capital": "", 
        "population": "11744", 
        "population_proper": "11744"
    }, 
    {
        "city": "V\u0103lenii de Munte", 
        "lat": "45.1856", 
        "lng": "26.0397", 
        "country": "Romania", 
        "iso2": "RO", 
        "admin_name": "Prahova", 
        "capital": "", 
        "population": "11707", 
        "population_proper": "11707"
    }, 
    {
        "city": "S\u0103cueni", 
        "lat": "47.3525", 
        "lng": "22.0914", 
        "country": "Romania", 
        "iso2": "RO", 
        "admin_name": "Bihor", 
        "capital": "", 
        "population": "11526", 
        "population_proper": "11526"
    }, 
    {
        "city": "Videle", 
        "lat": "44.2833", 
        "lng": "25.5333", 
        "country": "Romania", 
        "iso2": "RO", 
        "admin_name": "Teleorman", 
        "capital": "", 
        "population": "11508", 
        "population_proper": "11508"
    }, 
    {
        "city": "S\u00e2ntana", 
        "lat": "46.3500", 
        "lng": "21.5000", 
        "country": "Romania", 
        "iso2": "RO", 
        "admin_name": "Arad", 
        "capital": "", 
        "population": "11428", 
        "population_proper": "11428"
    }, 
    {
        "city": "Oravi\u0163a", 
        "lat": "45.0333", 
        "lng": "21.6833", 
        "country": "Romania", 
        "iso2": "RO", 
        "admin_name": "Cara\u015f-Severin", 
        "capital": "", 
        "population": "11382", 
        "population_proper": "11382"
    }, 
    {
        "city": "T\u00e2rgu Ocna", 
        "lat": "46.2803", 
        "lng": "26.6094", 
        "country": "Romania", 
        "iso2": "RO", 
        "admin_name": "Bac\u0103u", 
        "capital": "", 
        "population": "11300", 
        "population_proper": "11300"
    }, 
    {
        "city": "C\u0103lan", 
        "lat": "45.7361", 
        "lng": "23.0086", 
        "country": "Romania", 
        "iso2": "RO", 
        "admin_name": "Hunedoara", 
        "capital": "", 
        "population": "11279", 
        "population_proper": "11279"
    }, 
    {
        "city": "Bolde\u015fti-Sc\u0103eni", 
        "lat": "45.0300", 
        "lng": "26.0300", 
        "country": "Romania", 
        "iso2": "RO", 
        "admin_name": "Prahova", 
        "capital": "", 
        "population": "11137", 
        "population_proper": "11137"
    }, 
    {
        "city": "M\u0103gurele", 
        "lat": "44.3461", 
        "lng": "25.9999", 
        "country": "Romania", 
        "iso2": "RO", 
        "admin_name": "Ilfov", 
        "capital": "", 
        "population": "11041", 
        "population_proper": "11041"
    }, 
    {
        "city": "H\u00e2rl\u0103u", 
        "lat": "47.4278", 
        "lng": "26.9114", 
        "country": "Romania", 
        "iso2": "RO", 
        "admin_name": "Ia\u015fi", 
        "capital": "", 
        "population": "10905", 
        "population_proper": "10905"
    }, 
    {
        "city": "Dr\u0103g\u0103ne\u015fti-Olt", 
        "lat": "44.1697", 
        "lng": "24.5300", 
        "country": "Romania", 
        "iso2": "RO", 
        "admin_name": "Olt", 
        "capital": "", 
        "population": "10894", 
        "population_proper": "10894"
    }, 
    {
        "city": "Cristuru Secuiesc", 
        "lat": "46.2917", 
        "lng": "25.0353", 
        "country": "Romania", 
        "iso2": "RO", 
        "admin_name": "Harghita", 
        "capital": "", 
        "population": "10796", 
        "population_proper": "10796"
    }, 
    {
        "city": "Vladimirescu", 
        "lat": "46.1674", 
        "lng": "21.4616", 
        "country": "Romania", 
        "iso2": "RO", 
        "admin_name": "Arad", 
        "capital": "", 
        "population": "10710", 
        "population_proper": "10710"
    }, 
    {
        "city": "M\u0103r\u0103\u015fe\u015fti", 
        "lat": "45.8800", 
        "lng": "27.2300", 
        "country": "Romania", 
        "iso2": "RO", 
        "admin_name": "Vrancea", 
        "capital": "", 
        "population": "10671", 
        "population_proper": "10671"
    }, 
    {
        "city": "Beclean", 
        "lat": "47.1797", 
        "lng": "24.1797", 
        "country": "Romania", 
        "iso2": "RO", 
        "admin_name": "Bistri\u0163a-N\u0103s\u0103ud", 
        "capital": "", 
        "population": "10628", 
        "population_proper": "10628"
    }, 
    {
        "city": "Urla\u0163i", 
        "lat": "44.9911", 
        "lng": "26.2306", 
        "country": "Romania", 
        "iso2": "RO", 
        "admin_name": "Prahova", 
        "capital": "", 
        "population": "10541", 
        "population_proper": "10541"
    }, 
    {
        "city": "O\u0163elu Ro\u015fu", 
        "lat": "45.5333", 
        "lng": "22.3667", 
        "country": "Romania", 
        "iso2": "RO", 
        "admin_name": "Cara\u015f-Severin", 
        "capital": "", 
        "population": "10510", 
        "population_proper": "10510"
    }, 
    {
        "city": "Strehaia", 
        "lat": "44.6222", 
        "lng": "23.1972", 
        "country": "Romania", 
        "iso2": "RO", 
        "admin_name": "Mehedin\u0163i", 
        "capital": "", 
        "population": "10506", 
        "population_proper": "10506"
    }, 
    {
        "city": "T\u00e2rgu Frumos", 
        "lat": "47.2097", 
        "lng": "27.0131", 
        "country": "Romania", 
        "iso2": "RO", 
        "admin_name": "Ia\u015fi", 
        "capital": "", 
        "population": "10475", 
        "population_proper": "10475"
    }, 
    {
        "city": "Or\u015fova", 
        "lat": "44.7253", 
        "lng": "22.3961", 
        "country": "Romania", 
        "iso2": "RO", 
        "admin_name": "Mehedin\u0163i", 
        "capital": "", 
        "population": "10441", 
        "population_proper": "10441"
    }, 
    {
        "city": "Sinaia", 
        "lat": "45.3500", 
        "lng": "25.5514", 
        "country": "Romania", 
        "iso2": "RO", 
        "admin_name": "Prahova", 
        "capital": "", 
        "population": "10410", 
        "population_proper": "10410"
    }, 
    {
        "city": "Jibou", 
        "lat": "47.2583", 
        "lng": "23.2583", 
        "country": "Romania", 
        "iso2": "RO", 
        "admin_name": "S\u0103laj", 
        "capital": "", 
        "population": "10407", 
        "population_proper": "10407"
    }, 
    {
        "city": "Sovata", 
        "lat": "46.5961", 
        "lng": "25.0744", 
        "country": "Romania", 
        "iso2": "RO", 
        "admin_name": "Mure\u015f", 
        "capital": "", 
        "population": "10385", 
        "population_proper": "10385"
    }, 
    {
        "city": "Coste\u015fti", 
        "lat": "44.6697", 
        "lng": "24.8800", 
        "country": "Romania", 
        "iso2": "RO", 
        "admin_name": "Arge\u015f", 
        "capital": "", 
        "population": "10375", 
        "population_proper": "10375"
    }, 
    {
        "city": "Ianca", 
        "lat": "45.1350", 
        "lng": "27.4747", 
        "country": "Romania", 
        "iso2": "RO", 
        "admin_name": "Br\u0103ila", 
        "capital": "", 
        "population": "10343", 
        "population_proper": "10343"
    }, 
    {
        "city": "Lipova", 
        "lat": "46.0894", 
        "lng": "21.6914", 
        "country": "Romania", 
        "iso2": "RO", 
        "admin_name": "Arad", 
        "capital": "", 
        "population": "10313", 
        "population_proper": "10313"
    }, 
    {
        "city": "Dolhasca", 
        "lat": "47.4303", 
        "lng": "26.6094", 
        "country": "Romania", 
        "iso2": "RO", 
        "admin_name": "Suceava", 
        "capital": "", 
        "population": "10298", 
        "population_proper": "10298"
    }, 
    {
        "city": "Topoloveni", 
        "lat": "44.8069", 
        "lng": "25.0839", 
        "country": "Romania", 
        "iso2": "RO", 
        "admin_name": "Arge\u015f", 
        "capital": "", 
        "population": "10219", 
        "population_proper": "10219"
    }, 
    {
        "city": "Murfatlar", 
        "lat": "44.1736", 
        "lng": "28.4083", 
        "country": "Romania", 
        "iso2": "RO", 
        "admin_name": "Constan\u0163a", 
        "capital": "", 
        "population": "10216", 
        "population_proper": "10216"
    }, 
    {
        "city": "Nehoiu", 
        "lat": "45.4153", 
        "lng": "26.3082", 
        "country": "Romania", 
        "iso2": "RO", 
        "admin_name": "Buz\u0103u", 
        "capital": "", 
        "population": "10211", 
        "population_proper": "10211"
    }, 
    {
        "city": "Fl\u0103m\u00e2nzi", 
        "lat": "47.5644", 
        "lng": "26.8728", 
        "country": "Romania", 
        "iso2": "RO", 
        "admin_name": "Boto\u015fani", 
        "capital": "", 
        "population": "10136", 
        "population_proper": "10136"
    }, 
    {
        "city": "Covasna", 
        "lat": "45.8492", 
        "lng": "26.1853", 
        "country": "Romania", 
        "iso2": "RO", 
        "admin_name": "Covasna", 
        "capital": "", 
        "population": "10114", 
        "population_proper": "10114"
    }, 
    {
        "city": "Ale\u015fd", 
        "lat": "47.0572", 
        "lng": "22.3969", 
        "country": "Romania", 
        "iso2": "RO", 
        "admin_name": "Bihor", 
        "capital": "", 
        "population": "10066", 
        "population_proper": "10066"
    }, 
    {
        "city": "Valea lui Mihai", 
        "lat": "47.5200", 
        "lng": "22.1300", 
        "country": "Romania", 
        "iso2": "RO", 
        "admin_name": "Bihor", 
        "capital": "", 
        "population": "9902", 
        "population_proper": "9902"
    }, 
    {
        "city": "Darabani", 
        "lat": "48.1864", 
        "lng": "26.5892", 
        "country": "Romania", 
        "iso2": "RO", 
        "admin_name": "Boto\u015fani", 
        "capital": "", 
        "population": "9893", 
        "population_proper": "9893"
    }, 
    {
        "city": "Ha\u0163eg", 
        "lat": "45.6075", 
        "lng": "22.9500", 
        "country": "Romania", 
        "iso2": "RO", 
        "admin_name": "Hunedoara", 
        "capital": "", 
        "population": "9685", 
        "population_proper": "9685"
    }, 
    {
        "city": "S\u00e2ngeorz-B\u0103i", 
        "lat": "47.3700", 
        "lng": "24.6800", 
        "country": "Romania", 
        "iso2": "RO", 
        "admin_name": "Bistri\u0163a-N\u0103s\u0103ud", 
        "capital": "", 
        "population": "9679", 
        "population_proper": "9679"
    }, 
    {
        "city": "Titu", 
        "lat": "44.6622", 
        "lng": "25.5736", 
        "country": "Romania", 
        "iso2": "RO", 
        "admin_name": "D\u00e2mbovi\u0163a", 
        "capital": "", 
        "population": "9658", 
        "population_proper": "9658"
    }, 
    {
        "city": "H\u00e2r\u015fova", 
        "lat": "44.6833", 
        "lng": "27.9519", 
        "country": "Romania", 
        "iso2": "RO", 
        "admin_name": "Constan\u0163a", 
        "capital": "", 
        "population": "9642", 
        "population_proper": "9642"
    }, 
    {
        "city": "Liteni", 
        "lat": "47.5200", 
        "lng": "26.5319", 
        "country": "Romania", 
        "iso2": "RO", 
        "admin_name": "Suceava", 
        "capital": "", 
        "population": "9596", 
        "population_proper": "9596"
    }, 
    {
        "city": "N\u0103s\u0103ud", 
        "lat": "47.2833", 
        "lng": "24.4067", 
        "country": "Romania", 
        "iso2": "RO", 
        "admin_name": "Bistri\u0163a-N\u0103s\u0103ud", 
        "capital": "", 
        "population": "9587", 
        "population_proper": "9587"
    }, 
    {
        "city": "Podu Iloaiei", 
        "lat": "47.2167", 
        "lng": "27.2667", 
        "country": "Romania", 
        "iso2": "RO", 
        "admin_name": "Ia\u015fi", 
        "capital": "", 
        "population": "9573", 
        "population_proper": "9573"
    }, 
    {
        "city": "Odobe\u015fti", 
        "lat": "45.7497", 
        "lng": "27.1155", 
        "country": "Romania", 
        "iso2": "RO", 
        "admin_name": "Vrancea", 
        "capital": "", 
        "population": "9364", 
        "population_proper": "9364"
    }, 
    {
        "city": "Huedin", 
        "lat": "46.8738", 
        "lng": "23.0041", 
        "country": "Romania", 
        "iso2": "RO", 
        "admin_name": "Cluj", 
        "capital": "", 
        "population": "9346", 
        "population_proper": "9346"
    }, 
    {
        "city": "Ineu", 
        "lat": "46.4258", 
        "lng": "21.8369", 
        "country": "Romania", 
        "iso2": "RO", 
        "admin_name": "Arad", 
        "capital": "", 
        "population": "9260", 
        "population_proper": "9260"
    }, 
    {
        "city": "Salcea", 
        "lat": "47.6500", 
        "lng": "26.3700", 
        "country": "Romania", 
        "iso2": "RO", 
        "admin_name": "Suceava", 
        "capital": "", 
        "population": "9015", 
        "population_proper": "9015"
    }, 
    {
        "city": "Seini", 
        "lat": "47.7478", 
        "lng": "23.2853", 
        "country": "Romania", 
        "iso2": "RO", 
        "admin_name": "Maramure\u015f", 
        "capital": "", 
        "population": "8987", 
        "population_proper": "8987"
    }, 
    {
        "city": "Uricani", 
        "lat": "45.3364", 
        "lng": "23.1525", 
        "country": "Romania", 
        "iso2": "RO", 
        "admin_name": "Hunedoara", 
        "capital": "", 
        "population": "8972", 
        "population_proper": "8972"
    }, 
    {
        "city": "Babadag", 
        "lat": "44.8933", 
        "lng": "28.7119", 
        "country": "Romania", 
        "iso2": "RO", 
        "admin_name": "Tulcea", 
        "capital": "", 
        "population": "8940", 
        "population_proper": "8940"
    }, 
    {
        "city": "Bumbe\u015fti-Jiu", 
        "lat": "45.1786", 
        "lng": "23.3814", 
        "country": "Romania", 
        "iso2": "RO", 
        "admin_name": "Gorj", 
        "capital": "", 
        "population": "8932", 
        "population_proper": "8932"
    }, 
    {
        "city": "Bu\u015fteni", 
        "lat": "45.4153", 
        "lng": "25.5375", 
        "country": "Romania", 
        "iso2": "RO", 
        "admin_name": "Prahova", 
        "capital": "", 
        "population": "8894", 
        "population_proper": "8894"
    }, 
    {
        "city": "Agnita", 
        "lat": "45.9733", 
        "lng": "24.6172", 
        "country": "Romania", 
        "iso2": "RO", 
        "admin_name": "Sibiu", 
        "capital": "", 
        "population": "8732", 
        "population_proper": "8732"
    }, 
    {
        "city": "Iernut", 
        "lat": "46.4533", 
        "lng": "24.2333", 
        "country": "Romania", 
        "iso2": "RO", 
        "admin_name": "Mure\u015f", 
        "capital": "", 
        "population": "8705", 
        "population_proper": "8705"
    }, 
    {
        "city": "Baraolt", 
        "lat": "46.0750", 
        "lng": "25.6000", 
        "country": "Romania", 
        "iso2": "RO", 
        "admin_name": "Covasna", 
        "capital": "", 
        "population": "8672", 
        "population_proper": "8672"
    }, 
    {
        "city": "T\u0103\u015fnad", 
        "lat": "47.4772", 
        "lng": "22.5833", 
        "country": "Romania", 
        "iso2": "RO", 
        "admin_name": "Satu Mare", 
        "capital": "", 
        "population": "8631", 
        "population_proper": "8631"
    }, 
    {
        "city": "Bicaz", 
        "lat": "46.9108", 
        "lng": "26.0911", 
        "country": "Romania", 
        "iso2": "RO", 
        "admin_name": "Neam\u0163", 
        "capital": "", 
        "population": "8626", 
        "population_proper": "8626"
    }, 
    {
        "city": "Roznov", 
        "lat": "46.8356", 
        "lng": "26.5117", 
        "country": "Romania", 
        "iso2": "RO", 
        "admin_name": "Neam\u0163", 
        "capital": "", 
        "population": "8593", 
        "population_proper": "8593"
    }, 
    {
        "city": "B\u0103beni", 
        "lat": "44.9750", 
        "lng": "24.2311", 
        "country": "Romania", 
        "iso2": "RO", 
        "admin_name": "V\u00e2lcea", 
        "capital": "", 
        "population": "8451", 
        "population_proper": "8451"
    }, 
    {
        "city": "Negre\u015fti", 
        "lat": "46.8403", 
        "lng": "27.4417", 
        "country": "Romania", 
        "iso2": "RO", 
        "admin_name": "Vaslui", 
        "capital": "", 
        "population": "8380", 
        "population_proper": "8380"
    }, 
    {
        "city": "Ictar Budin\u0163i", 
        "lat": "45.8014", 
        "lng": "21.5133", 
        "country": "Romania", 
        "iso2": "RO", 
        "admin_name": "Timi\u015f", 
        "capital": "", 
        "population": "8336", 
        "population_proper": "8336"
    }, 
    {
        "city": "M\u0103cin", 
        "lat": "45.2456", 
        "lng": "28.1231", 
        "country": "Romania", 
        "iso2": "RO", 
        "admin_name": "Tulcea", 
        "capital": "", 
        "population": "8245", 
        "population_proper": "8245"
    }, 
    {
        "city": "T\u00e2rgu C\u0103rbune\u015fti", 
        "lat": "44.9583", 
        "lng": "23.5064", 
        "country": "Romania", 
        "iso2": "RO", 
        "admin_name": "Gorj", 
        "capital": "", 
        "population": "8034", 
        "population_proper": "8034"
    }, 
    {
        "city": "Chi\u015fineu Cri\u015f", 
        "lat": "46.5225", 
        "lng": "21.5158", 
        "country": "Romania", 
        "iso2": "RO", 
        "admin_name": "Arad", 
        "capital": "", 
        "population": "7987", 
        "population_proper": "7987"
    }, 
    {
        "city": "Siret", 
        "lat": "47.9500", 
        "lng": "26.0600", 
        "country": "Romania", 
        "iso2": "RO", 
        "admin_name": "Suceava", 
        "capital": "", 
        "population": "7976", 
        "population_proper": "7976"
    }, 
    {
        "city": "Mih\u0103ile\u015fti", 
        "lat": "44.3239", 
        "lng": "25.9069", 
        "country": "Romania", 
        "iso2": "RO", 
        "admin_name": "Giurgiu", 
        "capital": "", 
        "population": "7923", 
        "population_proper": "7923"
    }, 
    {
        "city": "Bude\u015fti", 
        "lat": "44.2300", 
        "lng": "26.4500", 
        "country": "Romania", 
        "iso2": "RO", 
        "admin_name": "C\u0103l\u0103ra\u015fi", 
        "capital": "", 
        "population": "7725", 
        "population_proper": "7725"
    }, 
    {
        "city": "Plopeni", 
        "lat": "45.0458", 
        "lng": "25.9536", 
        "country": "Romania", 
        "iso2": "RO", 
        "admin_name": "Prahova", 
        "capital": "", 
        "population": "7718", 
        "population_proper": "7718"
    }, 
    {
        "city": "Panciu", 
        "lat": "45.9100", 
        "lng": "27.0900", 
        "country": "Romania", 
        "iso2": "RO", 
        "admin_name": "Vrancea", 
        "capital": "", 
        "population": "7664", 
        "population_proper": "7664"
    }, 
    {
        "city": "Vl\u0103hi\u0163a", 
        "lat": "46.3500", 
        "lng": "25.5300", 
        "country": "Romania", 
        "iso2": "RO", 
        "admin_name": "Harghita", 
        "capital": "", 
        "population": "7649", 
        "population_proper": "7649"
    }, 
    {
        "city": "C\u00e2mpeni", 
        "lat": "46.3625", 
        "lng": "23.0456", 
        "country": "Romania", 
        "iso2": "RO", 
        "admin_name": "Alba", 
        "capital": "", 
        "population": "7629", 
        "population_proper": "7629"
    }, 
    {
        "city": "C\u0103lim\u0103ne\u015fti", 
        "lat": "45.2392", 
        "lng": "24.3433", 
        "country": "Romania", 
        "iso2": "RO", 
        "admin_name": "V\u00e2lcea", 
        "capital": "", 
        "population": "7622", 
        "population_proper": "7622"
    }, 
    {
        "city": "Fieni", 
        "lat": "45.1222", 
        "lng": "25.4183", 
        "country": "Romania", 
        "iso2": "RO", 
        "admin_name": "D\u00e2mbovi\u0163a", 
        "capital": "", 
        "population": "7587", 
        "population_proper": "7587"
    }, 
    {
        "city": "\u015eomcuta Mare", 
        "lat": "47.5167", 
        "lng": "23.4667", 
        "country": "Romania", 
        "iso2": "RO", 
        "admin_name": "Maramure\u015f", 
        "capital": "", 
        "population": "7565", 
        "population_proper": "7565"
    }, 
    {
        "city": "\u00centorsura Buz\u0103ului", 
        "lat": "45.6728", 
        "lng": "26.0342", 
        "country": "Romania", 
        "iso2": "RO", 
        "admin_name": "Covasna", 
        "capital": "", 
        "population": "7528", 
        "population_proper": "7528"
    }, 
    {
        "city": "Zlatna", 
        "lat": "46.1589", 
        "lng": "23.2211", 
        "country": "Romania", 
        "iso2": "RO", 
        "admin_name": "Alba", 
        "capital": "", 
        "population": "7490", 
        "population_proper": "7490"
    }, 
    {
        "city": "Anina", 
        "lat": "45.0917", 
        "lng": "21.8533", 
        "country": "Romania", 
        "iso2": "RO", 
        "admin_name": "Cara\u015f-Severin", 
        "capital": "", 
        "population": "7485", 
        "population_proper": "7485"
    }, 
    {
        "city": "Curtici", 
        "lat": "46.3419", 
        "lng": "21.3061", 
        "country": "Romania", 
        "iso2": "RO", 
        "admin_name": "Arad", 
        "capital": "", 
        "population": "7453", 
        "population_proper": "7453"
    }, 
    {
        "city": "N\u0103dlac", 
        "lat": "46.1667", 
        "lng": "20.7500", 
        "country": "Romania", 
        "iso2": "RO", 
        "admin_name": "Arad", 
        "capital": "", 
        "population": "7398", 
        "population_proper": "7398"
    }, 
    {
        "city": "Dumbr\u0103veni", 
        "lat": "46.2275", 
        "lng": "24.5758", 
        "country": "Romania", 
        "iso2": "RO", 
        "admin_name": "Sibiu", 
        "capital": "", 
        "population": "7388", 
        "population_proper": "7388"
    }, 
    {
        "city": "Victoria", 
        "lat": "45.6466", 
        "lng": "24.7059", 
        "country": "Romania", 
        "iso2": "RO", 
        "admin_name": "Bra\u015fov", 
        "capital": "", 
        "population": "7386", 
        "population_proper": "7386"
    }, 
    {
        "city": "Amara", 
        "lat": "44.6200", 
        "lng": "27.3200", 
        "country": "Romania", 
        "iso2": "RO", 
        "admin_name": "Ialomi\u0163a", 
        "capital": "", 
        "population": "7345", 
        "population_proper": "7345"
    }, 
    {
        "city": "P\u0103t\u00e2rlagele", 
        "lat": "45.3189", 
        "lng": "26.3597", 
        "country": "Romania", 
        "iso2": "RO", 
        "admin_name": "Buz\u0103u", 
        "capital": "", 
        "population": "7304", 
        "population_proper": "7304"
    }, 
    {
        "city": "Techirghiol", 
        "lat": "44.0575", 
        "lng": "28.5958", 
        "country": "Romania", 
        "iso2": "RO", 
        "admin_name": "Constan\u0163a", 
        "capital": "", 
        "population": "7292", 
        "population_proper": "7292"
    }, 
    {
        "city": "Pogoanele", 
        "lat": "44.9167", 
        "lng": "27.0000", 
        "country": "Romania", 
        "iso2": "RO", 
        "admin_name": "Buz\u0103u", 
        "capital": "", 
        "population": "7275", 
        "population_proper": "7275"
    }, 
    {
        "city": "Ulmeni", 
        "lat": "47.4656", 
        "lng": "23.3003", 
        "country": "Romania", 
        "iso2": "RO", 
        "admin_name": "Maramure\u015f", 
        "capital": "", 
        "population": "7270", 
        "population_proper": "7270"
    }, 
    {
        "city": "Turceni", 
        "lat": "44.6794", 
        "lng": "23.3731", 
        "country": "Romania", 
        "iso2": "RO", 
        "admin_name": "Gorj", 
        "capital": "", 
        "population": "7269", 
        "population_proper": "7269"
    }, 
    {
        "city": "Cehu Silvaniei", 
        "lat": "47.4120", 
        "lng": "23.1800", 
        "country": "Romania", 
        "iso2": "RO", 
        "admin_name": "S\u0103laj", 
        "capital": "", 
        "population": "7214", 
        "population_proper": "7214"
    }, 
    {
        "city": "T\u0103u\u0163ii M\u0103gheru\u015f", 
        "lat": "47.6678", 
        "lng": "23.4722", 
        "country": "Romania", 
        "iso2": "RO", 
        "admin_name": "Maramure\u015f", 
        "capital": "", 
        "population": "7136", 
        "population_proper": "7136"
    }, 
    {
        "city": "Murgeni", 
        "lat": "46.2000", 
        "lng": "28.0167", 
        "country": "Romania", 
        "iso2": "RO", 
        "admin_name": "Vaslui", 
        "capital": "", 
        "population": "7119", 
        "population_proper": "7119"
    }, 
    {
        "city": "Tismana", 
        "lat": "45.0506", 
        "lng": "22.9489", 
        "country": "Romania", 
        "iso2": "RO", 
        "admin_name": "Gorj", 
        "capital": "", 
        "population": "7035", 
        "population_proper": "7035"
    }, 
    {
        "city": "Buzia\u015f", 
        "lat": "45.6500", 
        "lng": "21.6000", 
        "country": "Romania", 
        "iso2": "RO", 
        "admin_name": "Timi\u015f", 
        "capital": "", 
        "population": "7023", 
        "population_proper": "7023"
    }, 
    {
        "city": "Segarcea", 
        "lat": "44.0919", 
        "lng": "23.7334", 
        "country": "Romania", 
        "iso2": "RO", 
        "admin_name": "Dolj", 
        "capital": "", 
        "population": "7019", 
        "population_proper": "7019"
    }, 
    {
        "city": "S\u0103veni", 
        "lat": "47.9533", 
        "lng": "26.8589", 
        "country": "Romania", 
        "iso2": "RO", 
        "admin_name": "Boto\u015fani", 
        "capital": "", 
        "population": "6999", 
        "population_proper": "6999"
    }, 
    {
        "city": "P\u00e2ncota", 
        "lat": "46.3225", 
        "lng": "21.6869", 
        "country": "Romania", 
        "iso2": "RO", 
        "admin_name": "Arad", 
        "capital": "", 
        "population": "6946", 
        "population_proper": "6946"
    }, 
    {
        "city": "Ungheni", 
        "lat": "46.4858", 
        "lng": "24.4608", 
        "country": "Romania", 
        "iso2": "RO", 
        "admin_name": "Mure\u015f", 
        "capital": "", 
        "population": "6945", 
        "population_proper": "6945"
    }, 
    {
        "city": "S\u0103rma\u015fu", 
        "lat": "46.7536", 
        "lng": "24.1667", 
        "country": "Romania", 
        "iso2": "RO", 
        "admin_name": "Mure\u015f", 
        "capital": "", 
        "population": "6942", 
        "population_proper": "6942"
    }, 
    {
        "city": "R\u0103cari", 
        "lat": "44.6333", 
        "lng": "25.7333", 
        "country": "Romania", 
        "iso2": "RO", 
        "admin_name": "D\u00e2mbovi\u0163a", 
        "capital": "", 
        "population": "6930", 
        "population_proper": "6930"
    }, 
    {
        "city": "T\u0103lmaciu", 
        "lat": "45.6667", 
        "lng": "24.2611", 
        "country": "Romania", 
        "iso2": "RO", 
        "admin_name": "Sibiu", 
        "capital": "", 
        "population": "6905", 
        "population_proper": "6905"
    }, 
    {
        "city": "Cajvana", 
        "lat": "47.7044", 
        "lng": "25.9694", 
        "country": "Romania", 
        "iso2": "RO", 
        "admin_name": "Suceava", 
        "capital": "", 
        "population": "6901", 
        "population_proper": "6901"
    }, 
    {
        "city": "Fundulea", 
        "lat": "44.4528", 
        "lng": "26.5153", 
        "country": "Romania", 
        "iso2": "RO", 
        "admin_name": "C\u0103l\u0103ra\u015fi", 
        "capital": "", 
        "population": "6851", 
        "population_proper": "6851"
    }, 
    {
        "city": "Livada", 
        "lat": "47.8667", 
        "lng": "23.1333", 
        "country": "Romania", 
        "iso2": "RO", 
        "admin_name": "Satu Mare", 
        "capital": "", 
        "population": "6773", 
        "population_proper": "6773"
    }, 
    {
        "city": "F\u0103get", 
        "lat": "45.8500", 
        "lng": "22.1800", 
        "country": "Romania", 
        "iso2": "RO", 
        "admin_name": "Timi\u015f", 
        "capital": "", 
        "population": "6761", 
        "population_proper": "6761"
    }, 
    {
        "city": "Teiu\u015f", 
        "lat": "46.2000", 
        "lng": "23.6800", 
        "country": "Romania", 
        "iso2": "RO", 
        "admin_name": "Alba", 
        "capital": "", 
        "population": "6695", 
        "population_proper": "6695"
    }, 
    {
        "city": "Doctor Petru Groza", 
        "lat": "46.5400", 
        "lng": "22.4700", 
        "country": "Romania", 
        "iso2": "RO", 
        "admin_name": "Bihor", 
        "capital": "", 
        "population": "6529", 
        "population_proper": "6529"
    }, 
    {
        "city": "\u00censur\u0103\u0163ei", 
        "lat": "44.9167", 
        "lng": "27.6000", 
        "country": "Romania", 
        "iso2": "RO", 
        "admin_name": "Br\u0103ila", 
        "capital": "", 
        "population": "6528", 
        "population_proper": "6528"
    }, 
    {
        "city": "Lehliu-Gar\u0103", 
        "lat": "44.4386", 
        "lng": "26.8533", 
        "country": "Romania", 
        "iso2": "RO", 
        "admin_name": "C\u0103l\u0103ra\u015fi", 
        "capital": "", 
        "population": "6502", 
        "population_proper": "6502"
    }, 
    {
        "city": "Piatra Olt", 
        "lat": "44.3603", 
        "lng": "24.2942", 
        "country": "Romania", 
        "iso2": "RO", 
        "admin_name": "Olt", 
        "capital": "", 
        "population": "6299", 
        "population_proper": "6299"
    }, 
    {
        "city": "Bujor", 
        "lat": "45.8667", 
        "lng": "27.9000", 
        "country": "Romania", 
        "iso2": "RO", 
        "admin_name": "Gala\u0163i", 
        "capital": "", 
        "population": "6299", 
        "population_proper": "6299"
    }, 
    {
        "city": "Horezu", 
        "lat": "45.1433", 
        "lng": "23.9917", 
        "country": "Romania", 
        "iso2": "RO", 
        "admin_name": "V\u00e2lcea", 
        "capital": "", 
        "population": "6263", 
        "population_proper": "6263"
    }, 
    {
        "city": "Deta", 
        "lat": "45.4000", 
        "lng": "21.2200", 
        "country": "Romania", 
        "iso2": "RO", 
        "admin_name": "Timi\u015f", 
        "capital": "", 
        "population": "6260", 
        "population_proper": "6260"
    }, 
    {
        "city": "Ardud", 
        "lat": "47.6333", 
        "lng": "22.8833", 
        "country": "Romania", 
        "iso2": "RO", 
        "admin_name": "Satu Mare", 
        "capital": "", 
        "population": "6231", 
        "population_proper": "6231"
    }, 
    {
        "city": "B\u0103lan", 
        "lat": "46.6497", 
        "lng": "25.8100", 
        "country": "Romania", 
        "iso2": "RO", 
        "admin_name": "Harghita", 
        "capital": "", 
        "population": "6115", 
        "population_proper": "6115"
    }, 
    {
        "city": "Sl\u0103nic", 
        "lat": "45.2333", 
        "lng": "25.9392", 
        "country": "Romania", 
        "iso2": "RO", 
        "admin_name": "Prahova", 
        "capital": "", 
        "population": "6034", 
        "population_proper": "6034"
    }, 
    {
        "city": "Brezoi", 
        "lat": "45.3442", 
        "lng": "24.2394", 
        "country": "Romania", 
        "iso2": "RO", 
        "admin_name": "V\u00e2lcea", 
        "capital": "", 
        "population": "6022", 
        "population_proper": "6022"
    }, 
    {
        "city": "Sebi\u015f", 
        "lat": "46.3728", 
        "lng": "22.1294", 
        "country": "Romania", 
        "iso2": "RO", 
        "admin_name": "Arad", 
        "capital": "", 
        "population": "5979", 
        "population_proper": "5979"
    }, 
    {
        "city": "Frasin", 
        "lat": "47.5183", 
        "lng": "25.7819", 
        "country": "Romania", 
        "iso2": "RO", 
        "admin_name": "Suceava", 
        "capital": "", 
        "population": "5876", 
        "population_proper": "5876"
    }, 
    {
        "city": "G\u0103taia", 
        "lat": "45.4333", 
        "lng": "21.4333", 
        "country": "Romania", 
        "iso2": "RO", 
        "admin_name": "Timi\u015f", 
        "capital": "", 
        "population": "5861", 
        "population_proper": "5861"
    }, 
    {
        "city": "Potcoava", 
        "lat": "44.4910", 
        "lng": "24.6083", 
        "country": "Romania", 
        "iso2": "RO", 
        "admin_name": "Olt", 
        "capital": "", 
        "population": "5743", 
        "population_proper": "5743"
    }, 
    {
        "city": "Miercurea Nirajului", 
        "lat": "46.5300", 
        "lng": "24.8000", 
        "country": "Romania", 
        "iso2": "RO", 
        "admin_name": "Mure\u015f", 
        "capital": "", 
        "population": "5554", 
        "population_proper": "5554"
    }, 
    {
        "city": "Bro\u015fteni", 
        "lat": "47.2442", 
        "lng": "25.6981", 
        "country": "Romania", 
        "iso2": "RO", 
        "admin_name": "Suceava", 
        "capital": "", 
        "population": "5506", 
        "population_proper": "5506"
    }, 
    {
        "city": "Novaci-Str\u0103ini", 
        "lat": "45.1800", 
        "lng": "23.6700", 
        "country": "Romania", 
        "iso2": "RO", 
        "admin_name": "Gorj", 
        "capital": "", 
        "population": "5431", 
        "population_proper": "5431"
    }, 
    {
        "city": "S\u0103li\u015fte", 
        "lat": "45.7942", 
        "lng": "23.8864", 
        "country": "Romania", 
        "iso2": "RO", 
        "admin_name": "Sibiu", 
        "capital": "", 
        "population": "5421", 
        "population_proper": "5421"
    }, 
    {
        "city": "Cop\u015fa Mic\u0103", 
        "lat": "46.1125", 
        "lng": "24.2306", 
        "country": "Romania", 
        "iso2": "RO", 
        "admin_name": "Sibiu", 
        "capital": "", 
        "population": "5404", 
        "population_proper": "5404"
    }, 
    {
        "city": "Baia de Aram\u0103", 
        "lat": "45.0000", 
        "lng": "22.8114", 
        "country": "Romania", 
        "iso2": "RO", 
        "admin_name": "Mehedin\u0163i", 
        "capital": "", 
        "population": "5349", 
        "population_proper": "5349"
    }, 
    {
        "city": "Ciacova", 
        "lat": "45.5000", 
        "lng": "21.1333", 
        "country": "Romania", 
        "iso2": "RO", 
        "admin_name": "Timi\u015f", 
        "capital": "", 
        "population": "5348", 
        "population_proper": "5348"
    }, 
    {
        "city": "\u015etef\u0103ne\u015fti", 
        "lat": "47.7922", 
        "lng": "27.2011", 
        "country": "Romania", 
        "iso2": "RO", 
        "admin_name": "Boto\u015fani", 
        "capital": "", 
        "population": "5314", 
        "population_proper": "5314"
    }, 
    {
        "city": "V\u00e2nju-Mare", 
        "lat": "44.4319", 
        "lng": "22.8769", 
        "country": "Romania", 
        "iso2": "RO", 
        "admin_name": "Mehedin\u0163i", 
        "capital": "", 
        "population": "5311", 
        "population_proper": "5311"
    }, 
    {
        "city": "Geoagiu", 
        "lat": "45.9200", 
        "lng": "23.2000", 
        "country": "Romania", 
        "iso2": "RO", 
        "admin_name": "Hunedoara", 
        "capital": "", 
        "population": "5294", 
        "population_proper": "5294"
    }, 
    {
        "city": "Rupea", 
        "lat": "46.0389", 
        "lng": "25.2225", 
        "country": "Romania", 
        "iso2": "RO", 
        "admin_name": "Bra\u015fov", 
        "capital": "", 
        "population": "5269", 
        "population_proper": "5269"
    }, 
    {
        "city": "S\u00e2ngeorgiu de P\u0103dure", 
        "lat": "46.4303", 
        "lng": "24.8417", 
        "country": "Romania", 
        "iso2": "RO", 
        "admin_name": "Mure\u015f", 
        "capital": "", 
        "population": "5166", 
        "population_proper": "5166"
    }, 
    {
        "city": "F\u0103lciu", 
        "lat": "46.3095", 
        "lng": "28.0849", 
        "country": "Romania", 
        "iso2": "RO", 
        "admin_name": "Vaslui", 
        "capital": "", 
        "population": "5103", 
        "population_proper": "5103"
    }, 
    {
        "city": "Negru Vod\u0103", 
        "lat": "43.8181", 
        "lng": "28.2125", 
        "country": "Romania", 
        "iso2": "RO", 
        "admin_name": "Constan\u0163a", 
        "capital": "", 
        "population": "5088", 
        "population_proper": "5088"
    }, 
    {
        "city": "Abrud", 
        "lat": "46.2739", 
        "lng": "23.0500", 
        "country": "Romania", 
        "iso2": "RO", 
        "admin_name": "Alba", 
        "capital": "", 
        "population": "5072", 
        "population_proper": "5072"
    }, 
    {
        "city": "Ostrov", 
        "lat": "44.1020", 
        "lng": "27.4017", 
        "country": "Romania", 
        "iso2": "RO", 
        "admin_name": "Constan\u0163a", 
        "capital": "", 
        "population": "5069", 
        "population_proper": "5069"
    }, 
    {
        "city": "Isaccea", 
        "lat": "45.2697", 
        "lng": "28.4597", 
        "country": "Romania", 
        "iso2": "RO", 
        "admin_name": "Tulcea", 
        "capital": "", 
        "population": "5026", 
        "population_proper": "5026"
    }, 
    {
        "city": "B\u0103ile Herculane", 
        "lat": "44.8772", 
        "lng": "22.4175", 
        "country": "Romania", 
        "iso2": "RO", 
        "admin_name": "Cara\u015f-Severin", 
        "capital": "", 
        "population": "5008", 
        "population_proper": "5008"
    }, 
    {
        "city": "Mili\u015f\u0103u\u0163i", 
        "lat": "47.7864", 
        "lng": "26.0044", 
        "country": "Romania", 
        "iso2": "RO", 
        "admin_name": "Suceava", 
        "capital": "", 
        "population": "5005", 
        "population_proper": "5005"
    }, 
    {
        "city": "Cavnic", 
        "lat": "47.6608", 
        "lng": "23.8778", 
        "country": "Romania", 
        "iso2": "RO", 
        "admin_name": "Maramure\u015f", 
        "capital": "", 
        "population": "4976", 
        "population_proper": "4976"
    }, 
    {
        "city": "Fierbin\u0163i-T\u00e2rg", 
        "lat": "44.6833", 
        "lng": "26.3833", 
        "country": "Romania", 
        "iso2": "RO", 
        "admin_name": "Ilfov", 
        "capital": "", 
        "population": "4969", 
        "population_proper": "4969"
    }, 
    {
        "city": "S\u0103li\u015ftea de Sus", 
        "lat": "47.6497", 
        "lng": "24.3500", 
        "country": "Romania", 
        "iso2": "RO", 
        "admin_name": "Maramure\u015f", 
        "capital": "", 
        "population": "4893", 
        "population_proper": "4893"
    }, 
    {
        "city": "B\u0103lce\u015fti", 
        "lat": "44.6132", 
        "lng": "23.9256", 
        "country": "Romania", 
        "iso2": "RO", 
        "admin_name": "V\u00e2lcea", 
        "capital": "", 
        "population": "4864", 
        "population_proper": "4864"
    }, 
    {
        "city": "Berbe\u015fti", 
        "lat": "44.9882", 
        "lng": "23.8682", 
        "country": "Romania", 
        "iso2": "RO", 
        "admin_name": "V\u00e2lcea", 
        "capital": "", 
        "population": "4836", 
        "population_proper": "4836"
    }, 
    {
        "city": "Predeal", 
        "lat": "45.5047", 
        "lng": "25.5786", 
        "country": "Romania", 
        "iso2": "RO", 
        "admin_name": "Bra\u015fov", 
        "capital": "", 
        "population": "4755", 
        "population_proper": "4755"
    }, 
    {
        "city": "Comlo\u015fu Mare", 
        "lat": "45.8850", 
        "lng": "20.6523", 
        "country": "Romania", 
        "iso2": "RO", 
        "admin_name": "Timi\u015f", 
        "capital": "", 
        "population": "4737", 
        "population_proper": "4737"
    }, 
    {
        "city": "Ghimbav", 
        "lat": "45.6628", 
        "lng": "25.5061", 
        "country": "Romania", 
        "iso2": "RO", 
        "admin_name": "Bra\u015fov", 
        "capital": "", 
        "population": "4698", 
        "population_proper": "4698"
    }, 
    {
        "city": "Azuga", 
        "lat": "45.4450", 
        "lng": "25.5553", 
        "country": "Romania", 
        "iso2": "RO", 
        "admin_name": "Prahova", 
        "capital": "", 
        "population": "4440", 
        "population_proper": "4440"
    }, 
    {
        "city": "\u0162icleni", 
        "lat": "44.8842", 
        "lng": "23.3964", 
        "country": "Romania", 
        "iso2": "RO", 
        "admin_name": "Gorj", 
        "capital": "", 
        "population": "4414", 
        "population_proper": "4414"
    }, 
    {
        "city": "Aninoasa", 
        "lat": "45.3782", 
        "lng": "23.3337", 
        "country": "Romania", 
        "iso2": "RO", 
        "admin_name": "Hunedoara", 
        "capital": "", 
        "population": "4360", 
        "population_proper": "4360"
    }, 
    {
        "city": "Victoria", 
        "lat": "47.2860", 
        "lng": "27.5976", 
        "country": "Romania", 
        "iso2": "RO", 
        "admin_name": "Ia\u015fi", 
        "capital": "", 
        "population": "4282", 
        "population_proper": "4282"
    }, 
    {
        "city": "Bucecea", 
        "lat": "47.7667", 
        "lng": "26.4333", 
        "country": "Romania", 
        "iso2": "RO", 
        "admin_name": "Boto\u015fani", 
        "capital": "", 
        "population": "4274", 
        "population_proper": "4274"
    }, 
    {
        "city": "Cenad", 
        "lat": "46.1375", 
        "lng": "20.5867", 
        "country": "Romania", 
        "iso2": "RO", 
        "admin_name": "Timi\u015f", 
        "capital": "", 
        "population": "4207", 
        "population_proper": "4207"
    }, 
    {
        "city": "Sl\u0103nic-Moldova", 
        "lat": "46.2066", 
        "lng": "26.4384", 
        "country": "Romania", 
        "iso2": "RO", 
        "admin_name": "Bac\u0103u", 
        "capital": "", 
        "population": "4198", 
        "population_proper": "4198"
    }, 
    {
        "city": "B\u0103ile Ol\u0103ne\u015fti", 
        "lat": "45.2000", 
        "lng": "24.2333", 
        "country": "Romania", 
        "iso2": "RO", 
        "admin_name": "V\u00e2lcea", 
        "capital": "", 
        "population": "4186", 
        "population_proper": "4186"
    }, 
    {
        "city": "Ungheni-Prut", 
        "lat": "47.2000", 
        "lng": "27.7833", 
        "country": "Romania", 
        "iso2": "RO", 
        "admin_name": "Ia\u015fi", 
        "capital": "", 
        "population": "4173", 
        "population_proper": "4173"
    }, 
    {
        "city": "Baia de Arie\u015f", 
        "lat": "46.3794", 
        "lng": "23.2797", 
        "country": "Romania", 
        "iso2": "RO", 
        "admin_name": "Alba", 
        "capital": "", 
        "population": "4074", 
        "population_proper": "4074"
    }, 
    {
        "city": "Dr\u00e2nceni", 
        "lat": "46.7703", 
        "lng": "28.1171", 
        "country": "Romania", 
        "iso2": "RO", 
        "admin_name": "Vaslui", 
        "capital": "", 
        "population": "3973", 
        "population_proper": "3973"
    }, 
    {
        "city": "Bor\u015f", 
        "lat": "47.1169", 
        "lng": "21.8022", 
        "country": "Romania", 
        "iso2": "RO", 
        "admin_name": "Bihor", 
        "capital": "", 
        "population": "3946", 
        "population_proper": "3946"
    }, 
    {
        "city": "Miercurea Sibiului", 
        "lat": "45.8833", 
        "lng": "23.7833", 
        "country": "Romania", 
        "iso2": "RO", 
        "admin_name": "Sibiu", 
        "capital": "", 
        "population": "3910", 
        "population_proper": "3910"
    }, 
    {
        "city": "Dorol\u0163", 
        "lat": "47.8423", 
        "lng": "22.7879", 
        "country": "Romania", 
        "iso2": "RO", 
        "admin_name": "Satu Mare", 
        "capital": "", 
        "population": "3806", 
        "population_proper": "3806"
    }, 
    {
        "city": "Sulina", 
        "lat": "45.1594", 
        "lng": "29.6528", 
        "country": "Romania", 
        "iso2": "RO", 
        "admin_name": "Tulcea", 
        "capital": "", 
        "population": "3663", 
        "population_proper": "3663"
    }, 
    {
        "city": "Bechet", 
        "lat": "43.7803", 
        "lng": "23.9568", 
        "country": "Romania", 
        "iso2": "RO", 
        "admin_name": "Dolj", 
        "capital": "", 
        "population": "3657", 
        "population_proper": "3657"
    }, 
    {
        "city": "F\u0103urei", 
        "lat": "45.0842", 
        "lng": "27.2728", 
        "country": "Romania", 
        "iso2": "RO", 
        "admin_name": "Br\u0103ila", 
        "capital": "", 
        "population": "3592", 
        "population_proper": "3592"
    }, 
    {
        "city": "Ocna Sibiului", 
        "lat": "45.8747", 
        "lng": "24.0667", 
        "country": "Romania", 
        "iso2": "RO", 
        "admin_name": "Sibiu", 
        "capital": "", 
        "population": "3562", 
        "population_proper": "3562"
    }, 
    {
        "city": "Ocnele Mari", 
        "lat": "45.0833", 
        "lng": "24.3167", 
        "country": "Romania", 
        "iso2": "RO", 
        "admin_name": "V\u00e2lcea", 
        "capital": "", 
        "population": "3309", 
        "population_proper": "3309"
    }, 
    {
        "city": "C\u0103z\u0103ne\u015fti", 
        "lat": "44.6192", 
        "lng": "27.0100", 
        "country": "Romania", 
        "iso2": "RO", 
        "admin_name": "Ialomi\u0163a", 
        "capital": "", 
        "population": "3271", 
        "population_proper": "3271"
    }, 
    {
        "city": "Dragomire\u015fti", 
        "lat": "47.6669", 
        "lng": "24.2914", 
        "country": "Romania", 
        "iso2": "RO", 
        "admin_name": "Maramure\u015f", 
        "capital": "", 
        "population": "3213", 
        "population_proper": "3213"
    }, 
    {
        "city": "Lipni\u0163a", 
        "lat": "44.0630", 
        "lng": "27.5515", 
        "country": "Romania", 
        "iso2": "RO", 
        "admin_name": "Constan\u0163a", 
        "capital": "", 
        "population": "3168", 
        "population_proper": "3168"
    }, 
    {
        "city": "Jamu Mare", 
        "lat": "45.2571", 
        "lng": "21.4552", 
        "country": "Romania", 
        "iso2": "RO", 
        "admin_name": "Timi\u015f", 
        "capital": "", 
        "population": "2971", 
        "population_proper": "2971"
    }, 
    {
        "city": "Bere\u015fti-T\u00e2rg", 
        "lat": "46.0936", 
        "lng": "27.8881", 
        "country": "Romania", 
        "iso2": "RO", 
        "admin_name": "Gala\u0163i", 
        "capital": "", 
        "population": "2916", 
        "population_proper": "2916"
    }, 
    {
        "city": "Pojejena", 
        "lat": "44.8059", 
        "lng": "21.5647", 
        "country": "Romania", 
        "iso2": "RO", 
        "admin_name": "Cara\u015f-Severin", 
        "capital": "", 
        "population": "2884", 
        "population_proper": "2884"
    }, 
    {
        "city": "Hunedoara", 
        "lat": "45.7500", 
        "lng": "22.9000", 
        "country": "Romania", 
        "iso2": "RO", 
        "admin_name": "Hunedoara", 
        "capital": "admin", 
        "population": "", 
        "population_proper": ""
    }
]